[
  {
    "id": 1,
    "name": "Tangadan Falls, San Gabriel, La Union",
    "imageUrl": "https://www.thepinaysolobackpacker.com/wp-content/uploads/2017/03/LA-UNION-TANGADAN-FALLS-5-1-of-12-846x515.jpeg",
    "price": 5000,
    "priceCurrency": "PHP",
    "lat": 16.6694,
    "lng": 120.5049
  },
  {
    "id": 2,
    "name": "Occalong Falls, Luna, La Union",
    "imageUrl": "http://3.bp.blogspot.com/-BeOCkpKfUHM/VjW4qzfBCdI/AAAAAAAA4VQ/_53Jcne5joE/s1600/Tuddingan.jpg",
    "price": 200,
    "priceCurrency": "PHP",
    "lat": 16.8308,
    "lng": 120.3551
  },
  {
    "id": 3,
    "name": "Pindangan Ruins, San Fernando, La Union",
    "imageUrl": "https://media-cdn.tripadvisor.com/media/photo-s/07/b4/7d/ad/pindangan-ruins.jpg",
    "price": 150,
    "priceCurrency": "PHP",
    "lat": 16.6074,
    "lng": 120.3666
  },
  {
    "id": 4,
    "name": "Grape Picking, Bauang, La Union",
    "imageUrl": "https://github.com/hannahjacaban/hahahaha/blob/master/grapes.jpg?raw=true",
    "price": 115,
    "priceCurrency": "PHP",
    "lat": 16.5143,
    "lng": 120.3551
  },
  {
    "id": 5,
    "name": "Surfing Area, San Juan, La Union",
    "imageUrl": "https://github.com/hannahjacaban/hahahaha/blob/master/urbiz.jpg?raw=true",
    "price": 135,
    "priceCurrency": "PHP",
    "lat": 16.6720,
    "lng": 120.3628
  },
  {
    "id": 6,
    "name": "Bangus Festival, Aringay, La Union",
    "imageUrl": "https://github.com/hannahjacaban/hahahaha/blob/master/dulao.jpg?raw=true",
    "price": 90,
    "priceCurrency": "PHP",
    "lat": 16.3888,
    "lng": 120.3885
  },
  {
    "id": 7,
    "name": "Thunderbird Resorts and Casinos",
    "imageUrl": "http://images.asiatravel.com/Hotel/6033/outdoor-pool.jpg",
    "price": 1000,
    "priceCurrency": "PHP",
    "lat": 16.6074,
    "lng": 120.3666
  },
  {
    "id": 8,
    "name": "Halo-Halo de Iloko",
    "imageUrl": "http://3.bp.blogspot.com/-rmOZO8Ib1J0/VLy3bE3gzkI/AAAAAAAABSk/WxFpc1mRTrM/s1600/IMG_7569.jpg",
    "price": 250,
    "priceCurrency": "PHP",
    "lat": 16.6074,
    "lng": 120.3666
  },
  {
    "id": 9,
    "name": "Hobbitat House, San Fernando, La Union",
    "imageUrl": "https://news.mb.com.ph/wp-content/uploads/2018/04/3-129.jpg",
    "price": 100,
    "priceCurrency": "PHP",
    "lat": 16.6074,
    "lng": 120.3666
  },
   {
    "id": 10,
    "name": "Hobbitat House, San Fernando, La Union",
    "imageUrl": "https://news.mb.com.ph/wp-content/uploads/2018/04/3-129.jpg",
    "price": 100,
    "priceCurrency": "PHP",
    "lat": 16.6074,
    "lng": 120.3666
  }
]
