[
  {
    "id": 1,
    "name": "Garin Farm Pilgrimage, Iloilo",
    "imageUrl": "https://2.bp.blogspot.com/-K4eUHCcsu44/WUzddO9f5cI/AAAAAAAAsZY/Y7JxNcOs8ow0oq3rakF50MqjoA0MDFpgQCLcBGAs/s1600/DIY%2BITINERARY%2BTO%2BGARIN%2BFARM%2BILOILO.jpg",
    "price": 901,
    "priceCurrency": "km",
    "lat": 10.7202, 
    "lng": 122.5621
  },
  {
    "id": 2,
    "name": "Hinatuan Enchanted River, Surigao del Sur",
    "imageUrl": "https://i0.wp.com/outoftownblog.com/wp-content/uploads/2017/03/Hinatuan-Enchanted-River.jpg?fit=720%2C483&ssl=1",
    "price": 1549,
    "priceCurrency": "km",
    "lat": 8.5405,
    "lng": 126.1145
  },
  {
    "id": 3,
    "name": "Fantasy World, Batangas",
    "imageUrl": "http://pop.inquirer.net/files/2017/05/DSC0139.jpg",
    "price": 342,
    "priceCurrency": "km",
    "lat": 13.9532,
    "lng": 120.88435
  },
  {
    "id": 4,
    "name": "Fortune Island, Batangas",
    "imageUrl": "https://www.wanderluststorytellers.com/wp-content/uploads/2017/12/Things-to-do-in-Fortune-Island-Phillipines.jpg",
    "price": 357,
    "priceCurrency": "km",
    "lat": 14.0940,
    "lng": 120.6890
  },
  {
    "id": 5,
    "name": "Tarsier Sanctuary, Bohol",
    "imageUrl": "http://www.bohol-philippines.com/images/tarsier-bohol6.jpg",
    "price": 1167,
    "priceCurrency": "km",
    "lat": 9.8500,
    "lng": 124.1435
  },
  {
    "id": 6,
    "name": "Huma Island, Palawan",
    "imageUrl": "https://pix10.agoda.net/hotelImages/529494/-1/ce5f8985c7ee8a9f0ae7506ecd8712fc.jpg?s=1024x768",
    "price": 1040,
    "priceCurrency": "km",
    "lat": 9.8349,
    "lng": 118.7384
  },
  {
    "id": 7,
    "name": "A Thousand Rose Garden, Cebu",
    "imageUrl": "https://i2.wp.com/sugbo.ph/wp-content/uploads/2017/02/10000rosescafe-cebu2.jpg?resize=618%2C464",
    "price": 1097,
    "priceCurrency": "km",
    "lat": 10.3157,
    "lng": 123.8854
  },
  {
    "id": 8,
    "name": "Flower Farm, Benguet",
    "imageUrl": "http://www.gotmarked.com/wp-content/uploads/Atok-Benguet-6.jpg",
    "price": 93,
    "priceCurrency": "km",
    "lat": 16.5974, 
    "lng": 120.6890
  },
  {
    "id": 9,
    "name": "Kaparkan Falls, Abra",
    "imageUrl": "https://i.pinimg.com/originals/01/89/ea/0189eac2e9baff227d342abdfb520bc4.jpg",
    "price": 197,
    "priceCurrency": "km",
    "lat": 17.5951,
    "lng": 120.7983
  },
   {
    "id": 10,
    "name": "Marlboro Hill, Batanes",
    "imageUrl": "https://www.madmonkeyhostels.com/wp-content/uploads/2016/03/3-marlborojpeg-e1459034618111.jpg",
    "price": 649,
    "priceCurrency": "km",
    "lat": 20.4485,
    "lng": 121.9708
  },
   {
    "id": 11,
    "name": "Man-Made Forest, Bohol",
    "imageUrl": "https://static.wixstatic.com/media/129133_ca0a5c47b70d464da37add1645196b0b~mv2.jpg/v1/fill/w_716,h_356,al_c,q_80,usm_0.66_1.00_0.01/129133_ca0a5c47b70d464da37add1645196b0b~mv2.webp",
    "price": 1188,
    "priceCurrency": "km",
    "lat": 9.7188,
    "lng": 124.0864
  },
  {
    "id": 12,
    "name": "Mt. Pinatubo Crater Lake, Zambales",
    "imageUrl": "https://c1.staticflickr.com/6/5282/5235729983_c692bf2fd6_b.jpg",
    "price": 192,
    "priceCurrency": "km",
    "lat": 15.5082,
    "lng": 119.9698
  },
  {
    "id": 13,
    "name": "Sea of Clouds, Mountain Province",
    "imageUrl": "https://c1.staticflickr.com/1/260/19890290323_29c6b1e7bc_b.jpg",
    "price": 200,
    "priceCurrency": "km",
    "lat": 17.0981,
    "lng": 120.9073
  },
  {
    "id": 14,
    "name": "Sunken Cemetery, Camiguin",
    "imageUrl": "https://assets.atlasobscura.com/media/W1siZiIsInVwbG9hZHMvcGxhY2VfaW1hZ2VzL2E1MjIyOGE0NWNjYjE3MmVkN19zdW5rZW4tY2VtZXRlcnkuanBnIl0sWyJwIiwidGh1bWIiLCJ4MzkwPiJdLFsicCIsImNvbnZlcnQiLCItcXVhbGl0eSA4MSAtYXV0by1vcmllbnQiXV0",
    "price": 1320,
    "priceCurrency": "km",
    "lat": 9.1732,
    "lng": 124.7299
  },
  {
    "id": 15,
    "name": "Guimaras Mango Farm, Guimaras",
    "imageUrl": "http://image.zizzee.com/tour/program/2411.jpg",
    "price": 994,
    "priceCurrency": "km",
    "lat": 10.5929,
    "lng": 122.6325
  },
  {
    "id": 16,
    "name": "The Ruins, Negros Occidental",
    "imageUrl": "http://static.trip101.com/paragraph_media/pictures/000/211/791/large/1024px-The_Ruins_in_Talisay__Negros_Occidental_at_Night_%282%29.jpg?1500259434",
    "price": 1024,
    "priceCurrency": "km",
    "lat": 10.2926,
    "lng":123.0247
  },
  {
    "id": 17,
    "name": "Bongao Capitol - Taj Mahal, Tawi-Tawi",
    "imageUrl": "http://www.akrosdayunibers.com/uploads/8/0/2/5/8025491/390383_orig.jpg",
    "price": 1658,
    "priceCurrency": "km",
    "lat": 5.1338,
    "lng": 119.9509
  },
  {
    "id": 18,
    "name": "Callao Cave, Cagayan",
    "imageUrl": "http://farm4.static.flickr.com/3265/2569187186_c8642c11e8_o.jpg",
    "price": 506,
    "priceCurrency": "km",
    "lat": 18.2490,
    "lng": 121.8788
  },
  {
    "id": 19,
    "name": "Calle Crisologo, Ilocos Sur ",
    "imageUrl": "https://www.vigattintourism.com/assets/tourist_spots_photos/optimize/1345267444ik07fGX5.jpg",
    "price": 169,
    "priceCurrency": "km",
    "lat": 17.5705,
    "lng": 120.3873
  },
  {
    "id": 20,
    "name": "Santo Rosario East, Aringay, La Union",
    "imageUrl": "https://github.com/hannahjacaban/hahahaha/blob/master/sre.jpg?raw=true",
    "price": 0,
    "priceCurrency": "km",
    "lat": 16.3787, 
    "lng": 120.3486 
  }
]
