[
  {
    "id": 1,
    "name": "Tangadan Falls, San Gabriel, La Union",
    "imageUrl": "https://raw.githubusercontent.com/lewagon/flats-boilerplate/master/images/flat1.jpg",
    "price": 5000,
    "priceCurrency": "PHP",
    "lat": 16.6694,
    "lng": 120.5049
  },
  {
    "id": 2,
    "name": "Occalong Falls, Luna, La Union",
    "imageUrl": "https://raw.githubusercontent.com/lewagon/flats-boilerplate/master/images/flat2.jpg",
    "price": 200,
    "priceCurrency": "PHP",
    "lat": 16.8308,
    "lng": 120.3551
  },
  {
    "id": 3,
    "name": "Pindangan Ruins, San Fernando, La Union",
    "imageUrl": "https://raw.githubusercontent.com/lewagon/flats-boilerplate/master/images/flat3.jpg",
    "price": 150,
    "priceCurrency": "PHP",
    "lat": 48.885312,
    "lng": 2.341225
  },
  {
    "id": 4,
    "name": "Grape Picking, Bauang, La Union",
    "imageUrl": "https://raw.githubusercontent.com/lewagon/flats-boilerplate/master/images/flat4.jpg",
    "price": 115,
    "priceCurrency": "PHP",
    "lat": 48.881840,
    "lng": 2.343371
  },
  {
    "id": 210,
    "name": "Surfing Area, San Juan, La Union",
    "imageUrl": "https://raw.githubusercontent.com/lewagon/flats-boilerplate/master/images/flat5.jpg",
    "price": 135,
    "priceCurrency": "PHP",
    "lat": 48.888839,
    "lng": 2.339208
  },
  {
    "id": 211,
    "name": "Bangus Festival, Aringay, La Union",
    "imageUrl": "https://raw.githubusercontent.com/lewagon/flats-boilerplate/master/images/flat6.jpg",
    "price": 90,
    "priceCurrency": "php",
    "lat": 48.827855,
    "lng": 2.350774
  }
]
