[
  {
    "id": 1,
    "name": "Garin Farm Pilgrimage, Iloilo",
    "imageUrl": "https://2.bp.blogspot.com/-K4eUHCcsu44/WUzddO9f5cI/AAAAAAAAsZY/Y7JxNcOs8ow0oq3rakF50MqjoA0MDFpgQCLcBGAs/s1600/DIY%2BITINERARY%2BTO%2BGARIN%2BFARM%2BILOILO.jpg",
    "price": 900.6,
    "priceCurrency": "km",
    "lat": 10.7202, 
    "lng": 122.5621
  },
  {
    "id": 2,
    "name": "Hinatuan Enchanted River, Surigao del Sur",
    "imageUrl": "https://i0.wp.com/outoftownblog.com/wp-content/uploads/2017/03/Hinatuan-Enchanted-River.jpg?fit=720%2C483&ssl=1",
    "price": 1548.9,
    "priceCurrency": "km",
    "lat": 8.5405,
    "lng": 126.1145
  },
  {
    "id": 3,
    "name": "Fantasy World, Batangas",
    "imageUrl": "http://pop.inquirer.net/files/2017/05/DSC0139.jpg",
    "price": 342.1,
    "priceCurrency": "km",
    "lat": 13.9532,
    "lng": 120.88435
  },
  {
    "id": 4,
    "name": "Fortune Island, Batangas",
    "imageUrl": "https://www.wanderluststorytellers.com/wp-content/uploads/2017/12/Things-to-do-in-Fortune-Island-Phillipines.jpg",
    "price": 357.1,
    "priceCurrency": "km",
    "lat": 14.0940,
    "lng": 120.6890
  },
  {
    "id": 5,
    "name": "Tarsier Sanctuary, Bohol",
    "imageUrl": "http://www.bohol-philippines.com/images/tarsier-bohol6.jpg",
    "price": 1166.7,
    "priceCurrency": "km",
    "lat": 9.8500,
    "lng": 124.1435
  },
  {
    "id": 6,
    "name": "Huma Island, Palawan",
    "imageUrl": "https://pix10.agoda.net/hotelImages/529494/-1/ce5f8985c7ee8a9f0ae7506ecd8712fc.jpg?s=1024x768",
    "price": 1040.4,
    "priceCurrency": "km",
    "lat": 9.8349,
    "lng": 118.7384
  },
  {
    "id": 7,
    "name": "A Thousand Rose Garden, Cebu",
    "imageUrl": "https://i2.wp.com/sugbo.ph/wp-content/uploads/2017/02/10000rosescafe-cebu2.jpg?resize=618%2C464",
    "price": 1096.8,
    "priceCurrency": "km",
    "lat": 10.3157,
    "lng": 123.8854
  },
  {
    "id": 8,
    "name": "Halo-Halo de Iloko",
    "imageUrl": "http://3.bp.blogspot.com/-rmOZO8Ib1J0/VLy3bE3gzkI/AAAAAAAABSk/WxFpc1mRTrM/s1600/IMG_7569.jpg",
    "price": 250,
    "priceCurrency": "PHP",
    "lat": 16.6242, 
    "lng": 120.3190
  },
  {
    "id": 9,
    "name": "Hobbitat House, San Fernando, La Union",
    "imageUrl": "https://news.mb.com.ph/wp-content/uploads/2018/04/3-129.jpg",
    "price": 100,
    "priceCurrency": "PHP",
    "lat": 16.6074,
    "lng": 120.3666
  },
   {
    "id": 10,
    "name": "Camp Avenue, San Juan, La Union",
    "imageUrl": "https://i0.wp.com/whyhereph.com/wp-content/uploads/2018/01/La-Union-Camp-Avenue_8.jpg?resize=1024%2C667&ssl=1",
    "price": 2500,
    "priceCurrency": "PHP",
    "lat": 16.6720,
    "lng": 120.3628
  },
   {
    "id": 11,
    "name": "Pugo Adventure, Pugo, La Union",
    "imageUrl": "http://media.tumblr.com/a47f71c250b56f196be289e695864bfb/tumblr_inline_mjquclxGlQ1qz4rgp.jpg",
    "price": 1000,
    "priceCurrency": "PHP",
    "lat": 16.3213, 
    "lng": 120.4761
  },
  {
    "id": 12,
    "name": "Immuki Island, Bacnotan, La Union",
    "imageUrl": "http://www.balaoanlaunion.gov.ph/wp-content/uploads/2017/09/IMMUKI-ISLAND.jpg",
    "price": 500,
    "priceCurrency": "PHP",
    "lat": 16.8022, 
    "lng": 120.4012
  },
  {
    "id": 13,
    "name": "Santo Rosario East, Aringay, La Union",
    "imageUrl": "https://github.com/hannahjacaban/hahahaha/blob/master/sre.jpg?raw=true",
    "price": 50,
    "priceCurrency": "PHP",
    "lat": 16.3787, 
    "lng": 120.3486 
  }
]
